
This is a live sample of trace from HI-406BT - http://localhost:50000/console/output  with "Level" box checked.

View	Row	Time	Level	Description
	0	06:29:30	*	$GPRMC,062935.000,A,3334.5666,N,11739.7744,W,0.00,,021211,,,A*61
	1	06:29:30	*	$GPVTG,,T,,M,0.00,N,0.0,K,A*13
	2	06:29:30	*	$GPGGA,062936.000,3334.5666,N,11739.7744,W,1,06,1.5,140.0,M,-34.4,M,,0000*66
	3	06:29:31	*	$GPGSA,A,3,32,13,20,23,16,30,,,,,,,4.4,1.5,4.1*37
	4	06:29:31	*	$GPGSV,3,1,12,20,67,194,26,23,56,333,20,16,54,112,29,32,49,154,29*78
	5	06:29:31	*	$GPGSV,3,2,12,30,44,062,24,13,33,306,31,07,19,243,19,31,14,048,10*77
	6	06:29:31	*	$GPGSV,3,3,12,01,09,205,12,04,09,304,,03,05,134,,06,03,120,*7A
	7	06:29:31	*	$GPRMC,062936.000,A,3334.5666,N,11739.7744,W,0.00,,021211,,,A*62
	8	06:29:31	*	$GPVTG,,T,,M,0.00,N,0.0,K,A*13
	9	06:29:31	*	$GPGGA,062937.000,3334.5666,N,11739.7744,W,1,06,1.5,140.0,M,-34.4,M,,0000*67
	10	06:29:31	*	$GPRMC,062937.000,A,3334.5666,N,11739.7744,W,0.00,,021211,,,A*63
	11	06:29:32	*	$GPVTG,,T,,M,0.00,N,0.0,K,A*13
	12	06:29:32	*	$GPGGA,062938.000,3334.5666,N,11739.7744,W,1,06,1.5,140.0,M,-34.4,M,,0000*68
	13	06:29:33	*	$GPRMC,062938.000,A,3334.5666,N,11739.7744,W,0.00,,021211,,,A*6C
	14	06:29:33	*	$GPVTG,,T,,M,0.00,N,0.0,K,A*13
	15	06:29:33	*	$GPGGA,062939.000,3334.5666,N,11739.7744,W,1,06,1.5,140.0,M,-34.4,M,,0000*69
	16	06:29:33	*	$GPRMC,062939.000,A,3334.5666,N,11739.7744,W,0.00,,021211,,,A*6D
	17	06:29:33	*	$GPVTG,,T,,M,0.00,N,0.0,K,A*13
	18	06:29:34	*	$GPGGA,062940.000,3334.5666,N,11739.7744,W,1,06,1.5,140.0,M,-34.4,M,,0000*67
	19	06:29:35	*	$GPRMC,062940.000,A,3334.5666,N,11739.7744,W,0.00,,021211,,,A*63
	20	06:29:35	*	$GPVTG,,T,,M,0.00,N,0.0,K,A*13
	21	06:29:35	*	$GPGGA,062941.000,3334.5666,N,11739.7744,W,1,05,2.0,140.0,M,-34.4,M,,0000*63
	22	06:29:36	*	$GPGSA,A,3,32,13,20,16,30,,,,,,,,6.2,2.0,5.9*3D
	23	06:29:36	*	$GPGSV,3,1,12,20,67,194,26,23,56,333,19,16,54,112,29,32,49,154,29*72
	24	06:29:36	*	$GPGSV,3,2,12,30,44,062,25,13,33,306,31,07,19,243,19,31,14,048,10*76
	25	06:29:36	*	$GPGSV,3,3,12,01,09,205,08,04,09,304,15,03,05,134,,06,03,120,*75
	26	06:29:36	*	$GPRMC,062941.000,A,3334.5666,N,11739.7744,W,0.00,,021211,,,A*62
	27	06:29:36	*	$GPVTG,,T,,M,0.00,N,0.0,K,A*13
	28	06:29:36	*	$GPGGA,062942.000,3334.5666,N,11739.7744,W,1,06,1.5,140.0,M,-34.4,M,,0000*65
	29	06:29:36	*	$GPRMC,062942.000,A,3334.5666,N,11739.7744,W,0.00,,021211,,,A*61
	30	06:29:37	*	$GPVTG,,T,,M,0.00,N,0.0,K,A*13
	31	06:29:38	*	$GPGGA,062943.000,3334.5666,N,11739.7744,W,1,05,2.0,140.0,M,-34.4,M,,0000*61
	32	06:29:38	*	$GPRMC,062943.000,A,3334.5666,N,11739.7744,W,0.00,,021211,,,A*60
	33	06:29:38	*	$GPVTG,,T,,M,0.00,N,0.0,K,A*13
	34	06:29:38	*	$GPGGA,062944.000,3334.5666,N,11739.7744,W,1,06,1.5,140.0,M,-34.4,M,,0000*63
	35	06:29:38	*	$GPRMC,062944.000,A,3334.5666,N,11739.7744,W,0.00,,021211,,,A*67
	36	06:29:39	*	$GPVTG,,T,,M,0.00,N,0.0,K,A*13
	37	06:29:39	*	$GPGGA,062945.000,3334.5666,N,11739.7744,W,1,06,1.5,140.0,M,-34.4,M,,0000*62
	38	06:29:40	*	$GPRMC,062945.000,A,3334.5666,N,11739.7744,W,0.00,,021211,,,A*66
	39	06:29:40	*	$GPVTG,,T,,M,0.00,N,0.0,K,A*13
	40	06:29:40	*	$GPGGA,062946.000,3334.5666,N,11739.7744,W,1,06,1.5,140.0,M,-34.4,M,,0000*61
	41	06:29:40	*	$GPGSA,A,3,32,13,20,23,16,30,,,,,,,4.4,1.5,4.1*37
	42	06:29:41	*	$GPGSV,3,1,12,20,67,194,27,23,56,333,18,16,54,112,27,32,49,154,28*7D
	43	06:29:41	*	$GPGSV,3,2,12,30,44,062,25,13,33,306,31,07,19,243,19,31,14,048,15*73
	44	06:29:41	*	$GPGSV,3,3,12,01,09,205,,04,09,304,16,03,05,134,,06,03,120,*7E
	45	06:29:41	*	$GPRMC,062946.000,A,3334.5666,N,11739.7744,W,0.00,,021211,,,A*65
	46	06:29:41	*	$GPVTG,,T,,M,0.00,N,0.0,K,A*13
	47	06:29:41	*	$GPGGA,062947.000,3334.5666,N,11739.7744,W,1,06,1.5,140.0,M,-34.4,M,,0000*60
	48	06:29:42	*	$GPRMC,062947.000,A,3334.5666,N,11739.7744,W,0.00,,021211,,,A*64
	49	06:29:42	*	$GPVTG,,T,,M,0.00,N,0.0,K,A*13
	50	06:29:42	*	$GPGGA,062948.000,3334.5666,N,11739.7744,W,1,06,1.5,140.0,M,-34.4,M,,0000*6F
	51	06:29:42	*	$GPRMC,062948.000,A,3334.5666,N,11739.7744,W,0.00,,021211,,,A*6B
	52	06:29:43	*	$GPVTG,,T,,M,0.00,N,0.0,K,A*13
	53	06:29:43	*	$GPGGA,062949.000,3334.5666,N,11739.7744,W,1,06,1.5,140.0,M,-34.4,M,,0000*6E
	54	06:29:44	*	$GPRMC,062949.000,A,3334.5666,N,11739.7744,W,0.00,,021211,,,A*6A
	55	06:29:44	*	$GPVTG,,T,,M,0.00,N,0.0,K,A*13
	56	06:29:44	*	$GPGGA,062950.000,3334.5666,N,11739.7744,W,1,06,1.5,140.0,M,-34.4,M,,0000*66
	57	06:29:45	*	$GPRMC,062950.000,A,3334.5666,N,11739.7744,W,0.00,,021211,,,A*62
	58	06:29:45	*	$GPVTG,,T,,M,0.00,N,0.0,K,A*13
	59	06:29:45	*	$GPGGA,062951.000,3334.5666,N,11739.7744,W,1,05,2.0,140.0,M,-34.4,M,,0000*62
	60	06:29:46	*	$GPGSA,A,3,32,13,20,16,30,,,,,,,,6.2,2.0,5.9*3D
	61	06:29:46	*	$GPGSV,3,1,12,20,67,194,27,23,56,333,17,16,54,112,27,32,49,154,28*72
	62	06:29:46	*	$GPGSV,3,2,12,30,44,062,25,13,33,306,30,07,19,243,18,31,14,048,16*70
	63	06:29:46	*	$GPGSV,3,3,12,01,09,205,07,04,09,304,15,03,05,134,,06,03,120,*7A
	64	06:29:46	*	$GPRMC,062951.000,A,3334.5666,N,11739.7744,W,0.00,,021211,,,A*63
	65	06:29:46	*	$GPVTG,,T,,M,0.00,N,0.0,K,A*13
	66	06:29:46	*	$GPGGA,062952.000,3334.5666,N,11739.7744,W,1,05,2.0,140.0,M,-34.4,M,,0000*61
	67	06:29:47	*	$GPRMC,062952.000,A,3334.5666,N,11739.7744,W,0.00,,021211,,,A*60
	68	06:29:47	*	$GPVTG,,T,,M,0.00,N,0.0,K,A*13
	69	06:29:47	*	$GPGGA,062953.000,3334.5666,N,11739.7744,W,1,05,2.0,140.0,M,-34.4,M,,0000*60
	70	06:29:48	*	$GPRMC,062953.000,A,3334.5666,N,11739.7744,W,0.00,,021211,,,A*61
	71	06:29:48	*	$GPVTG,,T,,M,0.00,N,0.0,K,A*13
	72	06:29:48	*	$GPGGA,062954.000,3334.5666,N,11739.7744,W,1,05,2.0,140.0,M,-34.4,M,,0000*67
	73	06:29:49	*	$GPRMC,062954.000,A,3334.5666,N,11739.7744,W,0.00,,021211,,,A*66
	74	06:29:49	*	$GPVTG,,T,,M,0.00,N,0.0,K,A*13
	75	06:29:49	*	$GPGGA,062955.000,3334.5666,N,11739.7744,W,1,05,2.0,140.0,M,-34.4,M,,0000*66
	76	06:29:50	*	$GPRMC,062955.000,A,3334.5666,N,11739.7744,W,0.00,,021211,,,A*67
	77	06:29:50	*	$GPVTG,,T,,M,0.00,N,0.0,K,A*13
	78	06:29:50	*	$GPGGA,062956.000,3334.5666,N,11739.7744,W,1,05,2.0,140.0,M,-34.4,M,,0000*65
	79	06:29:51	*	$GPGSA,A,3,32,13,20,16,30,,,,,,,,6.2,2.0,5.9*3D
	80	06:29:51	*	$GPGSV,3,1,12,20,67,194,28,23,56,333,17,16,54,112,27,32,49,154,27*72
	81	06:29:51	*	$GPGSV,3,2,12,30,44,062,26,13,33,306,30,07,19,243,18,31,14,048,15*70
	82	06:29:51	*	$GPGSV,3,3,12,01,09,205,10,04,09,304,16,03,05,134,,06,03,120,*7F
	83	06:29:51	*	$GPRMC,062956.000,A,3334.5666,N,11739.7744,W,0.00,,021211,,,A*64
	84	06:29:51	*	$GPVTG,,T,,M,0.00,N,0.0,K,A*13
	85	06:29:51	*	$GPGGA,062957.000,3334.5666,N,11739.7744,W,1,05,2.0,140.0,M,-34.4,M,,0000*64
	86	06:29:52	*	$GPRMC,062957.000,A,3334.5666,N,11739.7744,W,0.00,,021211,,,A*65
	87	06:29:52	*	$GPVTG,,T,,M,0.00,N,0.0,K,A*13
	88	06:29:53	*	$GPGGA,062958.000,3334.5666,N,11739.7744,W,1,05,2.0,140.0,M,-34.4,M,,0000*6B
	89	06:29:53	*	$GPRMC,062958.000,A,3334.5666,N,11739.7744,W,0.00,,021211,,,A*6A
	90	06:29:53	*	$GPVTG,,T,,M,0.00,N,0.0,K,A*13
	91	06:29:53	*	$GPGGA,062959.000,3334.5666,N,11739.7744,W,1,05,2.0,140.0,M,-34.4,M,,0000*6A
	92	06:29:54	*	$GPRMC,062959.000,A,3334.5666,N,11739.7744,W,0.00,,021211,,,A*6B
	93	06:29:54	*	$GPVTG,,T,,M,0.00,N,0.0,K,A*13
	94	06:29:54	*	$GPGGA,063000.000,3334.5666,N,11739.7744,W,1,05,2.0,140.0,M,-34.4,M,,0000*6E
	95	06:29:54	*	$GPRMC,063000.000,A,3334.5666,N,11739.7744,W,0.00,,021211,,,A*6F
	96	06:29:55	*	$GPVTG,,T,,M,0.00,N,0.0,K,A*13
	97	06:29:55	*	$GPGGA,063001.000,3334.5666,N,11739.7744,W,1,05,2.0,140.0,M,-34.4,M,,0000*6F
	98	06:29:55	*	$GPGSA,A,3,32,13,20,16,30,,,,,,,,6.2,2.0,5.9*3D
	99	06:29:56	*	$GPGSV,3,1,12,20,67,194,29,23,56,333,16,16,54,112,28,32,49,154,26*7C
	100	06:29:56	*	$GPGSV,3,2,12,30,44,062,26,13,33,306,30,07,19,243,17,31,14,048,11*7B
	101	06:29:56	*	$GPGSV,3,3,12,01,09,205,12,04,09,304,16,03,05,134,,06,03,120,*7D
	102	06:29:56	*	$GPRMC,063001.000,A,3334.5666,N,11739.7744,W,0.00,,021211,,,A*6E
	103	06:29:56	*	$GPVTG,,T,,M,0.00,N,0.0,K,A*13
	104	06:29:56	*	$GPGGA,063002.000,3334.5666,N,11739.7744,W,1,05,2.0,140.0,M,-34.4,M,,0000*6C
	105	06:29:56	*	$GPRMC,063002.000,A,3334.5666,N,11739.7744,W,0.00,,021211,,,A*6D
	106	06:29:57	*	$GPVTG,,T,,M,0.00,N,0.0,K,A*13
	107	06:29:57	*	$GPGGA,063003.000,3334.5666,N,11739.7744,W,1,05,2.0,140.0,M,-34.4,M,,0000*6D
	108	06:29:57	*	$GPRMC,063003.000,A,3334.5666,N,11739.7744,W,0.00,,021211,,,A*6C
	109	06:29:58	*	$GPVTG,,T,,M,0.00,N,0.0,K,A*13
	110	06:29:58	*	$GPGGA,063004.000,3334.5666,N,11739.7744,W,1,05,2.0,140.0,M,-34.4,M,,0000*6A
	111	06:29:59	*	$GPRMC,063004.000,A,3334.5666,N,11739.7744,W,0.00,,021211,,,A*6B
	112	06:29:59	*	$GPVTG,,T,,M,0.00,N,0.0,K,A*13
	113	06:29:59	*	$GPGGA,063005.000,3334.5666,N,11739.7744,W,1,05,2.0,140.0,M,-34.4,M,,0000*6B
	114	06:30:00	*	$GPRMC,063005.000,A,3334.5666,N,11739.7744,W,0.00,,021211,,,A*6A
	115	06:30:00	*	$GPVTG,,T,,M,0.00,N,0.0,K,A*13
	116	06:30:00	*	$GPGGA,063006.000,3334.5666,N,11739.7744,W,1,05,2.0,140.0,M,-34.4,M,,0000*68
	117	06:30:01	*	$GPGSA,A,3,32,13,20,16,30,,,,,,,,6.2,2.0,5.9*3D
	118	06:30:01	*	$GPGSV,3,1,12,20,67,194,30,23,56,333,16,16,54,112,28,32,49,154,25*77
	119	06:30:01	*	$GPGSV,3,2,12,30,44,062,26,13,33,306,30,07,19,243,16,31,14,048,15*7E
	120	06:30:01	*	$GPGSV,3,3,12,01,09,205,,04,09,304,17,03,05,134,,06,03,120,*7F
	121	06:30:01	*	$GPRMC,063006.000,A,3334.5666,N,11739.7744,W,0.00,,021211,,,A*69
	122	06:30:01	*	$GPVTG,,T,,M,0.00,N,0.0,K,A*13
	123	06:30:01	*	$GPGGA,063007.000,3334.5666,N,11739.7744,W,1,05,2.0,140.0,M,-34.4,M,,0000*69
	124	06:30:02	*	$GPRMC,063007.000,A,3334.5666,N,11739.7744,W,0.00,,021211,,,A*68
	125	06:30:02	*	$GPVTG,,T,,M,0.00,N,0.0,K,A*13
	126	06:30:02	*	$GPGGA,063008.000,3334.5666,N,11739.7744,W,1,05,2.0,140.0,M,-34.4,M,,0000*66
	127	06:30:03	*	$GPRMC,063008.000,A,3334.5666,N,11739.7744,W,0.00,,021211,,,A*67
	128	06:30:03	*	$GPVTG,,T,,M,0.00,N,0.0,K,A*13
	129	06:30:03	*	$GPGGA,063009.000,3334.5666,N,11739.7744,W,1,05,2.0,140.0,M,-34.4,M,,0000*67
	130	06:30:04	*	$GPRMC,063009.000,A,3334.5666,N,11739.7744,W,0.00,,021211,,,A*66
	131	06:30:04	*	$GPVTG,,T,,M,0.00,N,0.0,K,A*13
	132	06:30:04	*	$GPGGA,063010.000,3334.5666,N,11739.7744,W,1,05,2.0,140.0,M,-34.4,M,,0000*6F
	133	06:30:05	*	$GPRMC,063010.000,A,3334.5666,N,11739.7744,W,0.00,,021211,,,A*6E
	134	06:30:05	*	$GPVTG,,T,,M,0.00,N,0.0,K,A*13
	135	06:30:05	*	$GPGGA,063011.000,3334.5666,N,11739.7744,W,1,06,1.8,140.0,M,-34.4,M,,0000*66
	136	06:30:05	*	$GPGSA,A,3,32,31,13,20,16,30,,,,,,,3.9,1.8,3.5*30
	137	06:30:06	*	$GPGSV,3,1,12,20,67,194,31,23,56,333,14,16,54,112,28,32,49,154,24*75
	138	06:30:06	*	$GPGSV,3,2,12,30,44,062,23,13,33,306,30,07,19,243,16,31,14,048,19*77
	139	06:30:06	*	$GPGSV,3,3,12,01,09,205,10,04,09,304,16,03,05,134,,06,03,120,*7F
	140	06:30:06	*	$GPRMC,063011.000,A,3334.5666,N,11739.7744,W,0.00,,021211,,,A*6F
	141	06:30:06	*	$GPVTG,,T,,M,0.00,N,0.0,K,A*13
	142	06:30:06	*	$GPGGA,063012.000,3334.5666,N,11739.7744,W,1,06,1.8,140.0,M,-34.4,M,,0000*65
	143	06:30:06	*	$GPRMC,063012.000,A,3334.5666,N,11739.7744,W,0.00,,021211,,,A*6C
	144	06:30:06	*	$GPVTG,,T,,M,0.00,N,0.0,K,A*13
	145	06:30:07	*	$GPGGA,063013.000,3334.5666,N,11739.7744,W,1,06,1.8,140.0,M,-34.4,M,,0000*64
	146	06:30:07	*	$GPRMC,063013.000,A,3334.5666,N,11739.7744,W,0.00,,021211,,,A*6D
	147	06:30:08	*	$GPVTG,,T,,M,0.00,N,0.0,K,A*13
	148	06:30:08	*	$GPGGA,063014.000,3334.5666,N,11739.7744,W,1,06,1.8,140.0,M,-34.4,M,,0000*63
	149	06:30:08	*	$GPRMC,063014.000,A,3334.5666,N,11739.7744,W,0.00,,021211,,,A*6A
	150	06:30:09	*	$GPVTG,,T,,M,0.00,N,0.0,K,A*13
	151	06:30:09	*	$GPGGA,063015.000,3334.5666,N,11739.7744,W,1,06,1.8,140.0,M,-34.4,M,,0000*62
	152	06:30:10	*	$GPRMC,063015.000,A,3334.5666,N,11739.7744,W,0.00,,021211,,,A*6B
	153	06:30:10	*	$GPVTG,,T,,M,0.00,N,0.0,K,A*13
	154	06:30:10	*	$GPGGA,063016.000,3334.5666,N,11739.7744,W,1,06,1.8,140.0,M,-34.4,M,,0000*61
	155	06:30:11	*	$GPGSA,A,3,32,31,13,20,16,30,,,,,,,3.9,1.8,3.5*30
	156	06:30:11	*	$GPGSV,3,1,12,20,67,194,31,23,56,333,13,16,54,111,29,32,48,154,18*7E
	157	06:30:11	*	$GPGSV,3,2,12,30,43,062,24,13,33,306,30,07,19,243,15,31,14,049,18*74
	158	06:30:11	*	$GPGSV,3,3,12,04,09,303,16,01,08,205,10,03,05,134,,06,03,119,*73
	159	06:30:11	*	$GPRMC,063016.000,A,3334.5666,N,11739.7744,W,0.00,,021211,,,A*68
	160	06:30:11	*	$GPVTG,,T,,M,0.00,N,0.0,K,A*13
	161	06:30:11	*	$GPGGA,063017.000,3334.5666,N,11739.7744,W,1,06,1.8,140.0,M,-34.4,M,,0000*60
	162	06:30:11	*	$GPRMC,063017.000,A,3334.5666,N,11739.7744,W,0.00,,021211,,,A*69
	163	06:30:12	*	$GPVTG,,T,,M,0.00,N,0.0,K,A*13
	164	06:30:12	*	$GPGGA,063018.000,3334.5666,N,11739.7744,W,1,06,1.8,140.0,M,-34.4,M,,0000*6F
	165	06:30:13	*	$GPRMC,063018.000,A,3334.5666,N,11739.7744,W,0.00,,021211,,,A*66
	166	06:30:13	*	$GPVTG,,T,,M,0.00,N,0.0,K,A*13
	167	06:30:13	*	$GPGGA,063019.000,3334.5666,N,11739.7744,W,1,06,1.8,140.0,M,-34.4,M,,0000*6E
	168	06:30:14	*	$GPRMC,063019.000,A,3334.5666,N,11739.7744,W,0.00,,021211,,,A*67
	169	06:30:14	*	$GPVTG,,T,,M,0.00,N,0.0,K,A*13
	170	06:30:15	*	$GPGGA,063020.000,3334.5666,N,11739.7744,W,1,06,1.8,140.0,M,-34.4,M,,0000*64
	171	06:30:15	*	$GPRMC,063020.000,A,3334.5666,N,11739.7744,W,0.00,,021211,,,A*6D
	172	06:30:15	*	$GPVTG,,T,,M,0.00,N,0.0,K,A*13
	173	06:30:15	*	$GPGGA,063021.000,3334.5666,N,11739.7744,W,1,06,1.8,140.0,M,-34.4,M,,0000*65
	174	06:30:15	*	$GPGSA,A,3,32,31,13,20,16,30,,,,,,,3.9,1.8,3.5*30
	175	06:30:16	*	$GPGSV,3,1,12,20,67,194,32,23,56,333,17,16,54,111,29,32,48,154,19*78
	176	06:30:16	*	$GPGSV,3,2,12,30,43,062,24,13,33,306,29,07,19,243,,31,14,049,18*78
	177	06:30:16	*	$GPGSV,3,3,12,04,09,303,16,01,08,205,13,03,05,134,,06,03,119,*70
	178	06:30:16	*	$GPRMC,063021.000,A,3334.5666,N,11739.7744,W,0.00,,021211,,,A*6C
	179	06:30:16	*	$GPVTG,,T,,M,0.00,N,0.0,K,A*13
	180	06:30:17	*	$GPGGA,063022.000,3334.5666,N,11739.7744,W,1,06,1.8,140.0,M,-34.4,M,,0000*66
	181	06:30:17	*	$GPRMC,063022.000,A,3334.5666,N,11739.7744,W,0.00,,021211,,,A*6F
	182	06:30:17	*	$GPVTG,,T,,M,0.00,N,0.0,K,A*13
	183	06:30:17	*	$GPGGA,063023.000,3334.5666,N,11739.7744,W,1,05,3.0,140.0,M,-34.4,M,,0000*6E
	184	06:30:18	*	$GPRMC,063023.000,A,3334.5666,N,11739.7744,W,0.00,,021211,,,A*6E
	185	06:30:18	*	$GPVTG,,T,,M,0.00,N,0.0,K,A*13
	186	06:30:18	*	$GPGGA,063024.000,3334.5666,N,11739.7744,W,1,05,3.0,140.0,M,-34.4,M,,0000*69
	187	06:30:19	*	$GPRMC,063024.000,A,3334.5666,N,11739.7744,W,0.00,,021211,,,A*69
	188	06:30:19	*	$GPVTG,,T,,M,0.00,N,0.0,K,A*13
	189	06:30:19	*	$GPGGA,063025.000,3334.5666,N,11739.7744,W,1,06,1.8,140.0,M,-34.4,M,,0000*61
	190	06:30:20	*	$GPRMC,063025.000,A,3334.5666,N,11739.7744,W,0.00,,021211,,,A*68
	191	06:30:20	*	$GPVTG,,T,,M,0.00,N,0.0,K,A*13
	192	06:30:20	*	$GPGGA,063026.000,3334.5666,N,11739.7744,W,1,06,1.8,140.0,M,-34.4,M,,0000*62
	193	06:30:21	*	$GPGSA,A,3,32,31,13,20,16,30,,,,,,,3.9,1.8,3.5*30
	194	06:30:21	*	$GPGSV,3,1,12,20,67,194,32,23,56,333,18,16,54,111,29,32,48,154,18*76
	195	06:30:21	*	$GPGSV,3,2,12,30,43,062,23,13,33,306,29,07,19,243,,31,14,049,18*7F
	196	06:30:21	*	$GPGSV,3,3,12,04,09,303,16,01,08,205,08,03,05,134,,06,03,119,*7A
	197	06:30:21	*	$GPRMC,063026.000,A,3334.5666,N,11739.7744,W,0.00,,021211,,,A*6B
	198	06:30:21	*	$GPVTG,,T,,M,0.00,N,0.0,K,A*13
	199	06:30:21	*	$GPGGA,063027.000,3334.5666,N,11739.7744,W,1,06,1.8,140.0,M,-34.4,M,,0000*63
	200	06:30:21	*	$GPRMC,063027.000,A,3334.5666,N,11739.7744,W,0.00,,021211,,,A*6A
	201	06:30:22	*	$GPVTG,,T,,M,0.00,N,0.0,K,A*13
	202	06:30:22	*	$GPGGA,063028.000,3334.5666,N,11739.7744,W,1,06,1.8,140.0,M,-34.4,M,,0000*6C
	203	06:30:23	*	$GPRMC,063028.000,A,3334.5666,N,11739.7744,W,0.00,,021211,,,A*65
	204	06:30:23	*	$GPVTG,,T,,M,0.00,N,0.0,K,A*13
	205	06:30:23	*	$GPGGA,063029.000,3334.5666,N,11739.7744,W,1,05,3.0,140.0,M,-34.4,M,,0000*64
	206	06:30:24	*	$GPRMC,063029.000,A,3334.5666,N,11739.7744,W,0.00,,021211,,,A*64
	207	06:30:24	*	$GPVTG,,T,,M,0.00,N,0.0,K,A*13
	208	06:30:24	*	$GPGGA,063030.000,3334.5666,N,11739.7744,W,1,05,3.0,140.0,M,-34.4,M,,0000*6C
	209	06:30:25	*	$GPRMC,063030.000,A,3334.5666,N,11739.7744,W,0.00,,021211,,,A*6C
	210	06:30:25	*	$GPVTG,,T,,M,0.00,N,0.0,K,A*13
	211	06:30:25	*	$GPGGA,063031.000,3334.5666,N,11739.7744,W,1,05,3.0,140.0,M,-34.4,M,,0000*6D
	212	06:30:25	*	$GPGSA,A,3,31,13,20,16,30,,,,,,,,5.8,3.0,4.9*37
	213	06:30:26	*	$GPGSV,3,1,12,20,67,194,31,23,56,333,19,16,54,111,29,32,48,154,18*74
	214	06:30:26	*	$GPGSV,3,2,12,30,43,062,23,13,33,306,28,07,19,243,11,31,14,049,19*7F
	215	06:30:26	*	$GPGSV,3,3,12,04,09,303,16,01,08,205,10,03,05,134,,06,03,119,*73
	216	06:30:26	*	$GPRMC,063031.000,A,3334.5666,N,11739.7744,W,0.00,,021211,,,A*6D
	217	06:30:26	*	$GPVTG,,T,,M,0.00,N,0.0,K,A*13
	218	06:30:26	*	$GPGGA,063032.000,3334.5666,N,11739.7744,W,1,05,3.0,140.0,M,-34.4,M,,0000*6E
	219	06:30:26	*	$GPRMC,063032.000,A,3334.5666,N,11739.7744,W,0.00,,021211,,,A*6E
	220	06:30:27	*	$GPVTG,,T,,M,0.00,N,0.0,K,A*13
	221	06:30:27	*	$GPGGA,063033.000,3334.5666,N,11739.7744,W,1,05,3.0,140.0,M,-34.4,M,,0000*6F
	222	06:30:27	*	$GPRMC,063033.000,A,3334.5666,N,11739.7744,W,0.00,,021211,,,A*6F
	223	06:30:27	*	$GPVTG,,T,,M,0.00,N,0.0,K,A*13
	224	06:30:28	*	$GPGGA,063034.000,3334.5666,N,11739.7744,W,1,05,3.0,140.0,M,-34.4,M,,0000*68
	225	06:30:28	*	$GPRMC,063034.000,A,3334.5666,N,11739.7744,W,0.00,,021211,,,A*68
	226	06:30:29	*	$GPVTG,,T,,M,0.00,N,0.0,K,A*13
	227	06:30:29	*	$GPGGA,063035.000,3334.5666,N,11739.7744,W,1,05,3.0,140.0,M,-34.4,M,,0000*69
	228	06:30:30	*	$GPRMC,063035.000,A,3334.5666,N,11739.7744,W,0.00,,021211,,,A*69
	229	06:30:30	*	$GPVTG,,T,,M,0.00,N,0.0,K,A*13
	230	06:30:30	*	$GPGGA,063036.000,3334.5666,N,11739.7744,W,1,05,3.0,140.0,M,-34.4,M,,0000*6A
	231	06:30:30	*	$GPGSA,A,3,31,13,20,16,30,,,,,,,,5.7,3.0,4.9*38
	232	06:30:31	*	$GPGSV,3,1,12,20,67,194,31,23,56,333,19,16,54,111,29,32,48,154,16*7A
	233	06:30:31	*	$GPGSV,3,2,12,30,43,062,22,13,33,306,27,07,19,243,,31,14,049,18*70
	234	06:30:31	*	$GPGSV,3,3,12,04,09,303,17,01,08,205,16,03,05,134,,06,03,119,*74
	235	06:30:31	*	$GPRMC,063036.000,A,3334.5666,N,11739.7744,W,0.00,,021211,,,A*6A
	236	06:30:31	*	$GPVTG,,T,,M,0.00,N,0.0,K,A*13
	237	06:30:31	*	$GPGGA,063037.000,3334.5666,N,11739.7744,W,1,05,3.0,140.0,M,-34.4,M,,0000*6B
	238	06:30:31	*	$GPRMC,063037.000,A,3334.5666,N,11739.7744,W,0.00,,021211,,,A*6B
	239	06:30:31	*	$GPVTG,,T,,M,0.00,N,0.0,K,A*13
	240	06:30:32	*	$GPGGA,063038.000,3334.5666,N,11739.7744,W,1,05,3.0,140.0,M,-34.4,M,,0000*64
	241	06:30:32	*	$GPRMC,063038.000,A,3334.5666,N,11739.7744,W,0.00,,021211,,,A*64
	242	06:30:32	*	$GPVTG,,T,,M,0.00,N,0.0,K,A*13
	243	06:30:33	*	$GPGGA,063039.000,3334.5666,N,11739.7744,W,1,05,3.0,140.0,M,-34.4,M,,0000*65
	244	06:30:34	*	$GPRMC,063039.000,A,3334.5666,N,11739.7744,W,0.00,,021211,,,A*65
	245	06:30:34	*	$GPVTG,,T,,M,0.00,N,0.0,K,A*13
	246	06:30:34	*	$GPGGA,063040.000,3334.5666,N,11739.7744,W,1,05,3.0,140.0,M,-34.4,M,,0000*6B
	247	06:30:35	*	$GPRMC,063040.000,A,3334.5666,N,11739.7744,W,0.00,,021211,,,A*6B
	248	06:30:35	*	$GPVTG,,T,,M,0.00,N,0.0,K,A*13
	249	06:30:35	*	$GPGGA,063041.000,3334.5666,N,11739.7744,W,1,05,3.0,140.0,M,-34.4,M,,0000*6A
	250	06:30:35	*	$GPGSA,A,3,31,13,20,16,30,,,,,,,,5.7,3.0,4.9*38
	251	06:30:36	*	$GPGSV,3,1,12,20,67,194,30,23,57,333,19,16,54,111,29,32,48,154,15*79
	252	06:30:36	*	$GPGSV,3,2,12,30,43,062,21,13,34,306,27,07,19,243,,31,14,049,18*74
	253	06:30:36	*	$GPGSV,3,3,12,04,09,303,17,01,08,205,,03,05,134,,06,04,119,*74
	254	06:30:36	*	$GPRMC,063041.000,A,3334.5666,N,11739.7744,W,0.00,,021211,,,A*6A
	255	06:30:36	*	$GPVTG,,T,,M,0.00,N,0.0,K,A*13
	256	06:30:36	*	$GPGGA,063042.000,3334.5666,N,11739.7744,W,1,05,3.0,140.0,M,-34.4,M,,0000*69
	257	06:30:36	*	$GPRMC,063042.000,A,3334.5666,N,11739.7744,W,0.00,,021211,,,A*69
	258	06:30:37	*	$GPVTG,,T,,M,0.00,N,0.0,K,A*13
	259	06:30:37	*	$GPGGA,063043.000,3334.5666,N,11739.7744,W,1,05,3.0,140.0,M,-34.4,M,,0000*68
	260	06:30:38	*	$GPRMC,063043.000,A,3334.5666,N,11739.7744,W,0.00,,021211,,,A*68
	261	06:30:38	*	$GPVTG,,T,,M,0.00,N,0.0,K,A*13
	262	06:30:38	*	$GPGGA,063044.000,3334.5666,N,11739.7744,W,1,05,3.0,140.0,M,-34.4,M,,0000*6F
	263	06:30:38	*	$GPRMC,063044.000,A,3334.5666,N,11739.7744,W,0.00,,021211,,,A*6F
	264	06:30:39	*	$GPVTG,,T,,M,0.00,N,0.0,K,A*13
	265	06:30:39	*	$GPGGA,063045.000,3334.5666,N,11739.7744,W,1,04,1.8,140.0,M,-34.4,M,,0000*65
	266	06:30:39	*	$GPRMC,063045.000,A,3334.5666,N,11739.7744,W,0.00,,021211,,,A*6E
	267	06:30:40	*	$GPVTG,,T,,M,0.00,N,0.0,K,A*13
	268	06:30:40	*	$GPGGA,063046.000,3334.5666,N,11739.7744,W,1,04,1.8,140.0,M,-34.4,M,,0000*66
	269	06:30:40	*	$GPGSA,A,3,13,20,16,30,,,,,,,,,2.0,1.8,1.0*3C
	270	06:30:41	*	$GPGSV,3,1,12,20,67,194,29,23,57,333,19,16,54,111,29,32,48,154,15*71
	271	06:30:41	*	$GPGSV,3,2,12,30,43,062,20,13,34,306,27,07,19,243,14,31,14,049,18*70
	272	06:30:41	*	$GPGSV,3,3,12,04,09,303,17,01,08,205,,03,05,134,,06,04,119,*74
	273	06:30:41	*	$GPRMC,063046.000,A,3334.5666,N,11739.7744,W,0.00,,021211,,,A*6D
	274	06:30:41	*	$GPVTG,,T,,M,0.00,N,0.0,K,A*13
	275	06:30:41	*	$GPGGA,063047.000,3334.5666,N,11739.7744,W,1,05,3.0,140.0,M,-34.4,M,,0000*6C
	276	06:30:41	*	$GPRMC,063047.000,A,3334.5666,N,11739.7744,W,0.00,,021211,,,A*6C
	277	06:30:42	*	$GPVTG,,T,,M,0.00,N,0.0,K,A*13
	278	06:30:42	*	$GPGGA,063048.000,3334.5666,N,11739.7744,W,1,05,3.0,140.0,M,-34.4,M,,0000*63
	279	06:30:42	*	$GPRMC,063048.000,A,3334.5666,N,11739.7744,W,0.00,,021211,,,A*63
	280	06:30:43	*	$GPVTG,,T,,M,0.00,N,0.0,K,A*13
	281	06:30:43	*	$GPGGA,063049.000,3334.5666,N,11739.7744,W,1,05,2.0,140.0,M,-34.4,M,,0000*63
	282	06:30:43	*	$GPRMC,063049.000,A,3334.5666,N,11739.7744,W,0.00,,021211,,,A*62
	283	06:30:43	*	$GPVTG,,T,,M,0.00,N,0.0,K,A*13
	284	06:30:44	*	$GPGGA,063050.000,3334.5666,N,11739.7744,W,1,06,1.8,140.0,M,-34.4,M,,0000*63
	285	06:30:44	*	$GPRMC,063050.000,A,3334.5666,N,11739.7744,W,0.00,,021211,,,A*6A
	286	06:30:45	*	$GPVTG,,T,,M,0.00,N,0.0,K,A*13
	287	06:30:45	*	$GPGGA,063051.000,3334.5666,N,11739.7744,W,1,06,1.8,140.0,M,-34.4,M,,0000*62
	288	06:30:45	*	$GPGSA,A,3,32,31,13,20,16,30,,,,,,,3.9,1.8,3.4*31
	289	06:30:46	*	$GPGSV,3,1,12,20,67,194,30,23,57,333,20,16,54,111,29,32,48,154,23*76
	290	06:30:46	*	$GPGSV,3,2,12,30,43,062,20,13,34,306,26,07,19,243,,31,14,049,18*74
	291	06:30:46	*	$GPGSV,3,3,12,04,09,303,18,01,08,205,,03,05,134,,06,04,119,*7B
	292	06:30:46	*	$GPRMC,063051.000,A,3334.5666,N,11739.7744,W,0.00,,021211,,,A*6B
	293	06:30:46	*	$GPVTG,,T,,M,0.00,N,0.0,K,A*13
	294	06:30:46	*	$GPGGA,063052.000,3334.5666,N,11739.7744,W,1,06,1.8,140.0,M,-34.4,M,,0000*61
	295	06:30:47	*	$GPRMC,063052.000,A,3334.5666,N,11739.7744,W,0.00,,021211,,,A*68
	296	06:30:47	*	$GPVTG,,T,,M,0.00,N,0.0,K,A*13
	297	06:30:47	*	$GPGGA,063053.000,3334.5666,N,11739.7744,W,1,06,1.8,140.0,M,-34.4,M,,0000*60
	298	06:30:48	*	$GPRMC,063053.000,A,3334.5666,N,11739.7744,W,0.00,,021211,,,A*69
	299	06:30:48	*	$GPVTG,,T,,M,0.00,N,0.0,K,A*13
	300	06:30:48	*	$GPGGA,063054.000,3334.5666,N,11739.7744,W,1,06,1.8,140.0,M,-34.4,M,,0000*67
	301	06:30:49	*	$GPRMC,063054.000,A,3334.5666,N,11739.7744,W,0.00,,021211,,,A*6E
	302	06:30:49	*	$GPVTG,,T,,M,0.00,N,0.0,K,A*13
	303	06:30:49	*	$GPGGA,063055.000,3334.5666,N,11739.7744,W,1,06,1.8,140.0,M,-34.4,M,,0000*66
	304	06:30:49	*	$GPRMC,063055.000,A,3334.5666,N,11739.7744,W,0.00,,021211,,,A*6F
	305	06:30:49	*	$GPVTG,,T,,M,0.00,N,0.0,K,A*13
	306	06:30:50	*	$GPGGA,063056.000,3334.5666,N,11739.7744,W,1,06,1.8,140.0,M,-34.4,M,,0000*65
	307	06:30:50	*	$GPGSA,A,3,32,31,13,20,16,30,,,,,,,3.9,1.8,3.4*31
	308	06:30:51	*	$GPGSV,3,1,12,20,67,194,31,23,57,333,,16,54,111,29,32,48,154,22*74
	309	06:30:51	*	$GPGSV,3,2,12,30,43,062,20,13,34,306,27,07,19,243,08,31,14,049,18*7D
	310	06:30:51	*	$GPGSV,3,3,12,04,09,303,19,01,08,205,09,03,05,134,,06,04,119,*73
	311	06:30:51	*	$GPRMC,063056.000,A,3334.5666,N,11739.7744,W,0.00,,021211,,,A*6C
	312	06:30:51	*	$GPVTG,,T,,M,0.00,N,0.0,K,A*13
	313	06:30:51	*	$GPGGA,063057.000,3334.5666,N,11739.7744,W,1,06,1.8,140.0,M,-34.4,M,,0000*64
	314	06:30:52	*	$GPRMC,063057.000,A,3334.5666,N,11739.7744,W,0.00,,021211,,,A*6D
	315	06:30:52	*	$GPVTG,,T,,M,0.00,N,0.0,K,A*13
	316	06:30:52	*	$GPGGA,063058.000,3334.5666,N,11739.7744,W,1,06,1.8,140.0,M,-34.4,M,,0000*6B
	317	06:30:52	*	$GPRMC,063058.000,A,3334.5666,N,11739.7744,W,0.00,,021211,,,A*62
	318	06:30:52	*	$GPVTG,,T,,M,0.00,N,0.0,K,A*13
	319	06:30:53	*	$GPGGA,063059.000,3334.5666,N,11739.7744,W,1,06,1.8,140.0,M,-34.4,M,,0000*6A
	320	06:30:53	*	$GPRMC,063059.000,A,3334.5666,N,11739.7744,W,0.00,,021211,,,A*63
	321	06:30:54	*	$GPVTG,,T,,M,0.00,N,0.0,K,A*13
	322	06:30:54	*	$GPGGA,063100.000,3334.5666,N,11739.7744,W,1,06,1.8,140.0,M,-34.4,M,,0000*67
	323	06:30:55	*	$GPRMC,063100.000,A,3334.5666,N,11739.7744,W,0.00,,021211,,,A*6E
	324	06:30:55	*	$GPVTG,,T,,M,0.00,N,0.0,K,A*13
	325	06:30:55	*	$GPGGA,063101.000,3334.5666,N,11739.7744,W,1,05,2.6,140.0,M,-34.4,M,,0000*68
	326	06:30:56	*	$GPGSA,A,3,32,31,13,20,16,,,,,,,,5.6,2.6,5.0*34
	327	06:30:56	*	$GPGSV,3,1,12,20,67,194,32,23,57,333,20,16,54,111,28,32,48,154,22*74
	328	06:30:56	*	$GPGSV,3,2,12,30,43,062,16,13,34,306,27,07,19,243,,31,14,049,19*71
	329	06:30:56	*	$GPGSV,3,3,12,04,09,303,19,01,08,205,11,03,05,134,,06,04,119,*7A
	330	06:30:56	*	$GPRMC,063101.000,A,3334.5666,N,11739.7744,W,0.00,,021211,,,A*6F
	331	06:30:56	*	$GPVTG,,T,,M,0.00,N,0.0,K,A*13
	332	06:30:57	*	$GPGGA,063102.000,3334.5666,N,11739.7744,W,1,05,2.6,140.0,M,-34.4,M,,0000*6B
	333	06:30:57	*	$GPRMC,063102.000,A,3334.5666,N,11739.7744,W,0.00,,021211,,,A*6C
	334	06:30:57	*	$GPVTG,,T,,M,0.00,N,0.0,K,A*13
	335	06:30:57	*	$GPGGA,063103.000,3334.5666,N,11739.7744,W,1,05,2.6,140.0,M,-34.4,M,,0000*6A
	336	06:30:57	*	$GPRMC,063103.000,A,3334.5666,N,11739.7744,W,0.00,,021211,,,A*6D
	337	06:30:57	*	$GPVTG,,T,,M,0.00,N,0.0,K,A*13
	338	06:30:58	*	$GPGGA,063104.000,3334.5666,N,11739.7744,W,1,05,2.6,140.0,M,-34.4,M,,0000*6D
	339	06:30:58	*	$GPRMC,063104.000,A,3334.5666,N,11739.7744,W,0.00,,021211,,,A*6A
	340	06:30:59	*	$GPVTG,,T,,M,0.00,N,0.0,K,A*13
	341	06:30:59	*	$GPGGA,063105.000,3334.5666,N,11739.7744,W,1,05,2.6,140.0,M,-34.4,M,,0000*6C
	342	06:31:00	*	$GPRMC,063105.000,A,3334.5666,N,11739.7744,W,0.00,,021211,,,A*6B
	343	06:31:00	*	$GPVTG,,T,,M,0.00,N,0.0,K,A*13
	344	06:31:00	*	$GPGGA,063106.000,3334.5666,N,11739.7744,W,1,05,2.6,140.0,M,-34.4,M,,0000*6F
	345	06:31:00	*	$GPGSA,A,3,32,31,13,20,16,,,,,,,,5.6,2.6,4.9*3C
	346	06:31:01	*	$GPGSV,3,1,12,20,67,194,32,23,57,333,,16,54,111,27,32,48,154,22*79
	347	06:31:01	*	$GPGSV,3,2,12,30,43,062,12,13,34,306,27,07,19,243,10,31,14,049,19*74
	348	06:31:01	*	$GPGSV,3,3,12,04,09,303,19,01,08,205,13,03,05,134,,06,04,119,*78
	349	06:31:01	*	$GPRMC,063106.000,A,3334.5666,N,11739.7744,W,0.00,,021211,,,A*68
	350	06:31:01	*	$GPVTG,,T,,M,0.00,N,0.0,K,A*13
	351	06:31:01	*	$GPGGA,063107.000,3334.5666,N,11739.7744,W,1,06,1.7,140.0,M,-34.4,M,,0000*6F
	352	06:31:01	*	$GPRMC,063107.000,A,3334.5666,N,11739.7744,W,0.00,,021211,,,A*69
	353	06:31:02	*	$GPVTG,,T,,M,0.00,N,0.0,K,A*13
	354	06:31:03	*	$GPGGA,063108.000,3334.5666,N,11739.7744,W,1,06,1.7,140.0,M,-34.4,M,,0000*60
	355	06:31:03	*	$GPRMC,063108.000,A,3334.5666,N,11739.7744,W,0.00,,021211,,,A*66
	356	06:31:03	*	$GPVTG,,T,,M,0.00,N,0.0,K,A*13
	357	06:31:03	*	$GPGGA,063109.000,3334.5666,N,11739.7744,W,1,06,1.7,140.0,M,-34.4,M,,0000*61
	358	06:31:03	*	$GPRMC,063109.000,A,3334.5666,N,11739.7744,W,0.00,,021211,,,A*67
	359	06:31:04	*	$GPVTG,,T,,M,0.00,N,0.0,K,A*13
	360	06:31:04	*	$GPGGA,063110.000,3334.5666,N,11739.7744,W,1,06,1.7,140.0,M,-34.4,M,,0000*69
	361	06:31:05	*	$GPRMC,063110.000,A,3334.5666,N,11739.7744,W,0.00,,021211,,,A*6F
	362	06:31:05	*	$GPVTG,,T,,M,0.00,N,0.0,K,A*13
	363	06:31:05	*	$GPGGA,063111.000,3334.5666,N,11739.7744,W,1,06,1.7,140.0,M,-34.4,M,,0000*68
	364	06:31:05	*	$GPGSA,A,3,32,31,13,20,16,23,,,,,,,3.4,1.7,3.0*35
	365	06:31:06	*	$GPGSV,3,1,12,20,66,193,33,23,57,334,23,16,54,110,27,32,48,155,22*78
	366	06:31:06	*	$GPGSV,3,2,12,30,43,061,12,13,34,307,27,07,19,243,,31,13,049,18*71
	367	06:31:06	*	$GPGSV,3,3,12,04,09,303,19,01,08,205,11,03,05,134,,06,04,119,*7A
	368	06:31:06	*	$GPRMC,063111.000,A,3334.5666,N,11739.7744,W,0.00,,021211,,,A*6E
	369	06:31:06	*	$GPVTG,,T,,M,0.00,N,0.0,K,A*13
	370	06:31:06	*	$GPGGA,063112.000,3334.5666,N,11739.7744,W,1,06,1.7,140.0,M,-34.4,M,,0000*6B
	